[{
        "id": "new-york",
        "name": "New York",
        "latitude": 40.7128,
        "longitude": -74.0060
    },
    {
        "id": "los-angeles",
        "name": "Los Angeles",
        "latitude": 34.0522,
        "longitude": -118.2437
    },

    {
        "id": "shanghai",
        "name": "Shanghai",
        "latitude": 31.2304,
        "longitude": 121.4737
    },
    {
        "id": "london",
        "name": "London",
        "latitude": 51.5074,
        "longitude": -0.1278
    },
    {
        "id": "sydney",
        "name": "Sydney",
        "latitude": -33.8688,
        "longitude": 151.2093
    }
]